{
  "version": 0.6,
  "generator": "Overpass API",
  "osm3s": {
    "timestamp_osm_base": "2014-04-02T22:46:02Z",
    "copyright": "The data included in this document is from www.openstreetmap.org. The data is made available under ODbL."
  },
  "elements": [
    {
      "type": "way",
      "id": 4394272,
      "nodes": [
        26853008,
        1480393913,
        1480393918,
        916945072,
        955271898,
        1608422345,
        955271676,
        26853032,
        1608422347,
        1970612925,
        26853031,
        916462886,
        1480291240
      ],
      "tags": {
        "highway": "pedestrian",
        "name": "Oberdorfstrasse",
        "oneway": "yes"
      }
    },
    {
      "type": "way",
      "id": 4483813,
      "nodes": [
        27481904,
        265666526,
        316407656,
        92492760,
        1013986263,
        1013986287,
        92493816,
        27481901,
        300833834,
        92491155,
        27481900
      ],
      "tags": {
        "highway": "pedestrian",
        "motor_vehicle": "destination",
        "name": "Storchengasse"
      }
    },
    {
      "type": "way",
      "id": 4596504,
      "nodes": [
        29055613,
        1042941857,
        29055614,
        29055615
      ],
      "tags": {
        "highway": "pedestrian",
        "name": "Laternengasse"
      }
    },
    {
      "type": "way",
      "id": 4596505,
      "nodes": [
        29055612,
        29055615,
        29055610
      ],
      "tags": {
        "highway": "pedestrian",
        "width": "1.5"
      }
    },
    {
      "type": "way",
      "id": 4687941,
      "nodes": [
        29798743,
        1388659064,
        1057775823,
        92489171,
        92489496,
        1042897419,
        156377018,
        1042890638,
        29798744,
        754636176,
        34537342
      ],
      "tags": {
        "highway": "residential",
        "maxspeed": "50",
        "name": "Fraumünsterstrasse",
        "oneway": "yes"
      }
    },
    {
      "type": "way",
      "id": 8030441,
      "nodes": [
        27481920,
        1929709423,
        1929709425,
        26888813,
        1388659066,
        29798743
      ],
      "tags": {
        "highway": "residential",
        "name": "Poststrasse",
        "oneway": "yes"
      }
    },
    {
      "type": "way",
      "id": 8147286,
      "nodes": [
        27481893,
        27481892,
        27481891,
        27481890,
        726798942,
        27481898,
        1013992341,
        1013992317,
        2344162391,
        1013992336,
        759987271,
        2344162395,
        1858523213,
        759987276,
        759987274,
        759987272,
        660846076,
        27481895,
        27481894,
        27481893
      ],
      "tags": {
        "area": "yes",
        "bridge": "yes",
        "highway": "pedestrian",
        "informal_name": "Gmüesbrugg",
        "layer": "1",
        "name": "Rathausbrücke"
      }
    },
    {
      "type": "way",
      "id": 8149536,
      "nodes": [
        1031582236,
        1031583397,
        1031583630,
        29055505,
        1608422334,
        1031582236
      ],
      "tags": {
        "area": "yes",
        "highway": "pedestrian",
        "name": "Hechtplatz"
      }
    },
    {
      "type": "way",
      "id": 10594568,
      "nodes": [
        92486219,
        1037402756,
        370531291,
        92486223,
        92497846,
        92486224,
        1037402776,
        316403154,
        92486225,
        92486226,
        154617139,
        92486227,
        92491154,
        27481900
      ],
      "tags": {
        "highway": "pedestrian",
        "lit": "yes",
        "name": "Strehlgasse"
      }
    },
    {
      "type": "way",
      "id": 10594635,
      "nodes": [
        1608966953,
        92489171,
        1388680670,
        92489170
      ],
      "tags": {
        "highway": "residential",
        "maxspeed": "50",
        "name": "Kappelergasse",
        "oneway": "yes"
      }
    },
    {
      "type": "way",
      "id": 10594689,
      "nodes": [
        27481898,
        1037402815,
        1037402735,
        92491154,
        27481900,
        92491155,
        1041996281,
        1609407623,
        154614298,
        1037402793,
        27481890,
        726798942,
        27481898
      ],
      "tags": {
        "area": "yes",
        "highway": "pedestrian",
        "name": "Weinplatz"
      }
    },
    {
      "type": "way",
      "id": 10594740,
      "nodes": [
        92492373,
        92493816
      ],
      "tags": {
        "highway": "steps",
        "name": "Stegengasse"
      }
    },
    {
      "type": "way",
      "id": 10594794,
      "nodes": [
        316403154,
        92496502,
        1037402739,
        92496503,
        343597285,
        300836300,
        300833519,
        92492373,
        1852219833,
        1013986258,
        92496509
      ],
      "tags": {
        "highway": "pedestrian",
        "name": "Schlüsselgasse"
      }
    },
    {
      "type": "way",
      "id": 10594908,
      "nodes": [
        1609407595,
        393919498,
        316407656
      ],
      "tags": {
        "highway": "pedestrian",
        "name": "Zinnengasse"
      }
    },
    {
      "type": "way",
      "id": 11916106,
      "nodes": [
        29055496,
        29055497,
        26807316
      ],
      "tags": {
        "highway": "primary",
        "maxspeed": "50",
        "name": "Limmatquai",
        "ref": "17"
      }
    },
    {
      "type": "way",
      "id": 12305351,
      "nodes": [
        1609407619,
        1968663669,
        111525830,
        1480291260
      ],
      "tags": {
        "highway": "pedestrian",
        "name": "Ankengasse"
      }
    },
    {
      "type": "way",
      "id": 12305395,
      "nodes": [
        1609407628,
        894108092
      ],
      "tags": {
        "highway": "pedestrian",
        "name": "Krebsgasse"
      }
    },
    {
      "type": "way",
      "id": 12305625,
      "nodes": [
        111522432,
        111528344,
        111528124
      ],
      "tags": {
        "created_by": "Potlatch 0.5a",
        "highway": "pedestrian",
        "name": "Napfgasse"
      }
    },
    {
      "type": "way",
      "id": 12305709,
      "nodes": [
        111528466,
        895750437,
        895750312,
        895750369,
        111529183
      ],
      "tags": {
        "highway": "pedestrian",
        "name": "Schoffelgasse"
      }
    },
    {
      "type": "way",
      "id": 12306129,
      "nodes": [
        111529183,
        298168389,
        111533356,
        1970613006,
        1970612996,
        1609407597
      ],
      "tags": {
        "highway": "pedestrian",
        "name": "Rüdenplatz"
      }
    },
    {
      "type": "way",
      "id": 24444462,
      "nodes": [
        265666526,
        1609407577
      ],
      "tags": {
        "highway": "pedestrian",
        "name": "Kämbelgasse"
      }
    },
    {
      "type": "way",
      "id": 25747535,
      "nodes": [
        1309608259,
        1309608257
      ],
      "tags": {
        "foot": "yes",
        "highway": "steps"
      }
    },
    {
      "type": "way",
      "id": 27174738,
      "nodes": [
        111533356,
        298168390,
        298168391
      ],
      "tags": {
        "highway": "footway",
        "name": "Nägelihof"
      }
    },
    {
      "type": "way",
      "id": 27174739,
      "nodes": [
        1609407592,
        1970612978,
        298168391,
        1970612976,
        895750303,
        1309608268,
        1480291251,
        895750436
      ],
      "tags": {
        "highway": "pedestrian",
        "name": "Römergasse"
      }
    },
    {
      "type": "way",
      "id": 27391087,
      "nodes": [
        278462541,
        387850641,
        894921134,
        387850642,
        1480291249,
        1972634163,
        279108812,
        321365654,
        317775142,
        280783428,
        1480291240,
        1031582325,
        1480291239,
        1480291237,
        1480291236
      ],
      "tags": {
        "bicycle": "yes",
        "foot": "yes",
        "highway": "pedestrian",
        "name": "Kirchgasse"
      }
    },
    {
      "type": "way",
      "id": 27405245,
      "nodes": [
        300833834,
        1041911727
      ],
      "tags": {
        "highway": "steps",
        "name": "Thermengasse"
      }
    },
    {
      "type": "way",
      "id": 27405372,
      "nodes": [
        92496503,
        300836297,
        300836298,
        1037402831,
        1852219838,
        1852219853,
        1852219835,
        300836299,
        2344168583,
        1037402810,
        300836300,
        343597285,
        92496503
      ],
      "tags": {
        "area": "yes",
        "highway": "pedestrian",
        "name": "St. Peterhofstatt"
      }
    },
    {
      "type": "way",
      "id": 29077447,
      "nodes": [
        26807316,
        321342286,
        1970612895,
        1614556174,
        1480291236,
        29055600,
        29055613,
        252482075
      ],
      "tags": {
        "highway": "residential",
        "maxspeed": "50",
        "name": "Limmatquai"
      }
    },
    {
      "type": "way",
      "id": 29214491,
      "nodes": [
        445397450,
        445397451,
        321340650,
        321340651,
        1042961928,
        358125753,
        358125932,
        358126093,
        321340652,
        1609407520,
        321342286
      ],
      "tags": {
        "bicycle": "yes",
        "foot": "yes",
        "highway": "cycleway"
      }
    },
    {
      "type": "way",
      "id": 29216840,
      "nodes": [
        317774522,
        317774520,
        321365654,
        317775142,
        280783428,
        1480291240,
        1480291241,
        321365655,
        321365656,
        1309608260,
        1309608258,
        1309608259,
        1309608261,
        321365659,
        1309608262,
        280783430,
        1309608263,
        1970612975,
        1970612974,
        1480291248,
        317775139,
        2453806478,
        2453801839,
        429330444,
        2453801837,
        429330446,
        2453777361,
        2453777362,
        2453777363,
        2453777364,
        2453777365,
        1281444273,
        1281444275,
        317774522
      ],
      "tags": {
        "area": "yes",
        "foot": "yes",
        "highway": "pedestrian",
        "name": "Grossmünsterplatz"
      }
    },
    {
      "type": "way",
      "id": 30907673,
      "nodes": [
        92486227,
        1037402751,
        343597285
      ],
      "tags": {
        "highway": "pedestrian",
        "name": "Weggengasse"
      }
    },
    {
      "type": "way",
      "id": 31967665,
      "nodes": [
        358130638,
        726784463,
        358130641,
        358130643,
        358130645,
        358130638
      ],
      "tags": {
        "area": "yes",
        "highway": "pedestrian",
        "name": "Kappelerhof"
      }
    },
    {
      "type": "way",
      "id": 32103627,
      "nodes": [
        360334509,
        357504477
      ],
      "tags": {
        "highway": "footway"
      }
    },
    {
      "type": "way",
      "id": 32103629,
      "nodes": [
        357504477,
        360334511
      ],
      "tags": {
        "bridge": "yes",
        "highway": "footway"
      }
    },
    {
      "type": "way",
      "id": 32120378,
      "nodes": [
        1480393922,
        1970612907,
        26853031
      ],
      "tags": {
        "highway": "pedestrian",
        "name": "Rössligasse"
      }
    },
    {
      "type": "way",
      "id": 38099288,
      "nodes": [
        448145052,
        1614556174
      ],
      "tags": {
        "highway": "footway"
      }
    },
    {
      "type": "way",
      "id": 38099289,
      "nodes": [
        448145049,
        1609407526
      ],
      "tags": {
        "highway": "footway"
      }
    },
    {
      "type": "way",
      "id": 38099291,
      "nodes": [
        448145056,
        358125932
      ],
      "tags": {
        "highway": "footway"
      }
    },
    {
      "type": "way",
      "id": 38099292,
      "nodes": [
        448145054,
        358126093
      ],
      "tags": {
        "highway": "footway"
      }
    },
    {
      "type": "way",
      "id": 43583465,
      "nodes": [
        29798743,
        1388659070,
        92488891,
        1608966958
      ],
      "tags": {
        "foot": "yes",
        "highway": "residential",
        "maxspeed": "50",
        "name": "Fraumünsterstrasse",
        "oneway": "no"
      }
    },
    {
      "type": "way",
      "id": 58658652,
      "nodes": [
        1013986287,
        1609407599
      ],
      "tags": {
        "highway": "pedestrian",
        "name": "Stegengasse"
      }
    },
    {
      "type": "way",
      "id": 58659780,
      "nodes": [
        1608966958,
        1630573690,
        726795606,
        1630573692,
        1630573694,
        27481908
      ],
      "tags": {
        "foot": "yes",
        "highway": "service",
        "name": "Münsterhof"
      }
    },
    {
      "type": "way",
      "id": 58659782,
      "nodes": [
        300836808,
        92492774,
        92492775,
        92496509,
        92492760
      ],
      "tags": {
        "highway": "pedestrian",
        "name": "In Gassen"
      }
    },
    {
      "type": "way",
      "id": 58660273,
      "nodes": [
        27481900,
        726798944,
        726798942
      ],
      "tags": {
        "cycleway": "opposite",
        "highway": "service",
        "motor_vehicle": "destination",
        "oneway": "yes"
      }
    },
    {
      "type": "way",
      "id": 58736475,
      "nodes": [
        27587922,
        727801811
      ],
      "tags": {
        "highway": "footway"
      }
    },
    {
      "type": "way",
      "id": 60708572,
      "nodes": [
        726798942,
        726798940,
        726798946,
        759987272
      ],
      "tags": {
        "cycleway": "opposite",
        "highway": "service",
        "layer": "1",
        "motor_vehicle": "destination",
        "oneway": "yes"
      }
    },
    {
      "type": "way",
      "id": 75891335,
      "nodes": [
        1609407601,
        895750384,
        298168389
      ],
      "tags": {
        "highway": "footway"
      }
    },
    {
      "type": "way",
      "id": 75896444,
      "nodes": [
        273165508,
        895787586
      ],
      "tags": {
        "highway": "pedestrian",
        "name": "Blaufahnenstrasse",
        "tunnel": "yes"
      }
    },
    {
      "type": "way",
      "id": 75896464,
      "nodes": [
        895787586,
        273159885
      ],
      "tags": {
        "highway": "pedestrian",
        "name": "Blaufahnenstrasse"
      }
    },
    {
      "type": "way",
      "id": 81993569,
      "nodes": [
        1480291257,
        955271705,
        955271608,
        955271833
      ],
      "tags": {
        "highway": "footway",
        "tunnel": "yes"
      }
    },
    {
      "type": "way",
      "id": 87201030,
      "nodes": [
        92492775,
        1041911969,
        1013986265
      ],
      "tags": {
        "highway": "footway"
      }
    },
    {
      "type": "way",
      "id": 87201031,
      "nodes": [
        1013986256,
        1013986268,
        1852219833
      ],
      "tags": {
        "highway": "steps"
      }
    },
    {
      "type": "way",
      "id": 87201034,
      "nodes": [
        1013986265,
        1013986260,
        1041912291,
        1013992324
      ],
      "tags": {
        "highway": "steps"
      }
    },
    {
      "type": "way",
      "id": 87201338,
      "nodes": [
        1013986295,
        1013992310,
        1013992325,
        1013992320,
        1013992340,
        2454047087,
        1852219836,
        1852219843,
        1852219828,
        1852219829,
        1013986256,
        1852219837,
        1852219841,
        1852219830,
        1852219844,
        1013992324,
        1013986295
      ],
      "tags": {
        "area": "yes",
        "highway": "pedestrian"
      }
    },
    {
      "type": "way",
      "id": 88877021,
      "nodes": [
        1031583619,
        29055609,
        1480393911,
        1031582236,
        1608422334,
        29055505,
        1031583722,
        1608422344,
        1031583583,
        1031582627,
        1480393922,
        1031582717
      ],
      "tags": {
        "highway": "pedestrian",
        "name": "Schifflände"
      }
    },
    {
      "type": "way",
      "id": 88877066,
      "nodes": [
        1031582717,
        1031583622
      ],
      "tags": {
        "highway": "pedestrian",
        "name": "Schifflände",
        "tunnel": "yes"
      }
    },
    {
      "type": "way",
      "id": 88877121,
      "nodes": [
        1031583622,
        1480291237,
        29055612,
        29055600
      ],
      "tags": {
        "highway": "pedestrian",
        "name": "Schifflände"
      }
    },
    {
      "type": "way",
      "id": 89896362,
      "nodes": [
        1041911727,
        1041912420
      ],
      "tags": {
        "highway": "steps",
        "name": "Thermengasse",
        "tunnel": "yes"
      }
    },
    {
      "type": "way",
      "id": 89896436,
      "nodes": [
        1041912420,
        300833519
      ],
      "tags": {
        "highway": "steps",
        "name": "Thermengasse"
      }
    },
    {
      "type": "way",
      "id": 91111669,
      "nodes": [
        1057775823,
        1388680677
      ],
      "tags": {
        "highway": "footway"
      }
    },
    {
      "type": "way",
      "id": 116045700,
      "nodes": [
        1309608268,
        1309608265,
        1309608266,
        1309608264
      ],
      "tags": {
        "highway": "steps"
      }
    },
    {
      "type": "way",
      "id": 124903600,
      "nodes": [
        1388680674,
        1388680673
      ],
      "tags": {
        "covered": "yes",
        "highway": "footway"
      }
    },
    {
      "type": "way",
      "id": 124903602,
      "nodes": [
        1388680677,
        1388680675
      ],
      "tags": {
        "covered": "yes",
        "highway": "footway"
      }
    },
    {
      "type": "way",
      "id": 124903607,
      "nodes": [
        1388680673,
        1057775821
      ],
      "tags": {
        "highway": "footway"
      }
    },
    {
      "type": "way",
      "id": 124903608,
      "nodes": [
        1388680675,
        1388680674
      ],
      "tags": {
        "highway": "footway"
      }
    },
    {
      "type": "way",
      "id": 134667382,
      "nodes": [
        279108812,
        1480291244,
        1480291247,
        895750436,
        1480291255,
        273159885,
        1480291256,
        1480291257,
        1480291259,
        111528466,
        111528124,
        1480291260,
        111522397,
        894788929,
        111526193,
        50514797
      ],
      "tags": {
        "highway": "pedestrian",
        "name": "Münstergasse"
      }
    },
    {
      "type": "way",
      "id": 134667383,
      "nodes": [
        1480291247,
        1480291246,
        1480291243,
        2453806477,
        317775139,
        1480291248,
        1309608264,
        1480291250,
        1480291251,
        1480291252,
        1480291255,
        895750436,
        1480291247
      ],
      "tags": {
        "area": "yes",
        "highway": "pedestrian",
        "name": "Zwingliplatz"
      }
    },
    {
      "type": "way",
      "id": 134679963,
      "nodes": [
        1031582627,
        1480393921,
        1480393919,
        1031583583,
        1031582627
      ],
      "tags": {
        "area": "yes",
        "highway": "pedestrian",
        "name": "Schiffländeplatz"
      }
    },
    {
      "type": "way",
      "id": 147636159,
      "nodes": [
        1608422347,
        1608422344,
        1970612892,
        26807316
      ],
      "tags": {
        "highway": "pedestrian",
        "name": "Geigergasse",
        "oneway": "yes"
      }
    },
    {
      "type": "way",
      "id": 147636167,
      "nodes": [
        27462587,
        1608422332,
        1608422330,
        1608422319,
        1608422316,
        445397476
      ],
      "tags": {
        "highway": "primary",
        "maxspeed": "50",
        "name": "Utoquai",
        "oneway": "yes",
        "ref": "17"
      }
    },
    {
      "type": "way",
      "id": 147636174,
      "nodes": [
        26807316,
        1608422341,
        1608422337,
        1608422335,
        27462587
      ],
      "tags": {
        "highway": "primary",
        "maxspeed": "50",
        "oneway": "yes",
        "ref": "17"
      }
    },
    {
      "type": "way",
      "id": 147692714,
      "nodes": [
        1608966954,
        1608966960
      ],
      "tags": {
        "bridge": "yes",
        "foot": "yes",
        "highway": "residential",
        "layer": "1",
        "name": "Münsterbrücke"
      }
    },
    {
      "type": "way",
      "id": 147692716,
      "nodes": [
        1608966960,
        26807318
      ],
      "tags": {
        "foot": "yes",
        "highway": "residential",
        "name": "Münsterbrücke"
      }
    },
    {
      "type": "way",
      "id": 147692717,
      "nodes": [
        154608885,
        754636171,
        1042890578,
        154608888,
        156377016,
        1042890630,
        743313367,
        92489497,
        357502733,
        360334509,
        1608966953
      ],
      "tags": {
        "highway": "residential",
        "name": "Stadthausquai",
        "oneway": "yes"
      }
    },
    {
      "type": "way",
      "id": 147692718,
      "nodes": [
        1608966953,
        1057775821,
        1608966956
      ],
      "tags": {
        "highway": "residential",
        "name": "Stadthausquai"
      }
    },
    {
      "type": "way",
      "id": 147759323,
      "nodes": [
        26807318,
        1609407580,
        1609407592,
        1609407597,
        1609407601,
        1609407619,
        1609407628,
        27481897
      ],
      "tags": {
        "highway": "residential",
        "motor_vehicle": "no",
        "name": "Limmatquai"
      }
    },
    {
      "type": "way",
      "id": 147759326,
      "nodes": [
        1614556174,
        1609407526,
        1609407520,
        27462587
      ],
      "tags": {
        "highway": "residential",
        "maxspeed": "50",
        "name": "Utoquai",
        "oneway": "yes"
      }
    },
    {
      "type": "way",
      "id": 147759328,
      "nodes": [
        1608966955,
        1609407529
      ],
      "tags": {
        "highway": "steps",
        "name": "Wühre"
      }
    },
    {
      "type": "way",
      "id": 147759332,
      "nodes": [
        1609407615,
        1609407623
      ],
      "tags": {
        "highway": "footway",
        "layer": "-1",
        "name": "Wühre",
        "tunnel": "yes"
      }
    },
    {
      "type": "way",
      "id": 147759333,
      "nodes": [
        1609407529,
        1609407534,
        1609407577,
        1609407584,
        1609407588,
        1609407595,
        1609407599,
        1609407615
      ],
      "tags": {
        "highway": "footway",
        "name": "Wühre"
      }
    },
    {
      "type": "way",
      "id": 148349692,
      "nodes": [
        29055610,
        1480291239
      ],
      "tags": {
        "highway": "pedestrian",
        "name": "Laternengasse",
        "width": "1"
      }
    },
    {
      "type": "way",
      "id": 150139897,
      "nodes": [
        1630573696,
        1630573707,
        1630573694
      ],
      "tags": {
        "highway": "service",
        "name": "Münsterhof"
      }
    },
    {
      "type": "way",
      "id": 150139899,
      "nodes": [
        1630573686,
        1630573705,
        27481904,
        1630573708,
        1630573706,
        1630573698,
        1630573696,
        1630573690
      ],
      "tags": {
        "highway": "service",
        "name": "Münsterhof"
      }
    },
    {
      "type": "way",
      "id": 174550594,
      "nodes": [
        1852219832,
        1852219835
      ],
      "tags": {
        "highway": "steps"
      }
    },
    {
      "type": "way",
      "id": 174550595,
      "nodes": [
        1852219853,
        1852219839
      ],
      "tags": {
        "highway": "steps"
      }
    },
    {
      "type": "way",
      "id": 174550596,
      "nodes": [
        1852219840,
        1852219846,
        1852219851,
        1852219852,
        1852219847,
        2344168581,
        1852219850,
        1852219849,
        1852219845,
        1852219834,
        1852219832,
        1852219839,
        1852219842,
        1852219840
      ],
      "tags": {
        "area": "yes",
        "highway": "pedestrian"
      }
    },
    {
      "type": "way",
      "id": 195365660,
      "nodes": [
        1013992324,
        1013986256
      ],
      "tags": {
        "highway": "pedestrian",
        "render": "no"
      }
    },
    {
      "type": "way",
      "id": 208809259,
      "nodes": [
        252482075,
        1309608257,
        26807318
      ],
      "tags": {
        "foot": "yes",
        "highway": "residential",
        "maxspeed": "50",
        "name": "Limmatquai"
      }
    },
    {
      "type": "way",
      "id": 225659194,
      "nodes": [
        2344168583,
        2344168582,
        2344168581
      ],
      "tags": {
        "highway": "footway"
      }
    },
    {
      "type": "way",
      "id": 238953840,
      "nodes": [
        1608966958,
        1608966959,
        1630573686,
        1608966957,
        1608966956,
        1608966955,
        1608966954
      ],
      "tags": {
        "foot": "yes",
        "highway": "residential",
        "maxspeed": "50",
        "name": "Münsterhof",
        "oneway": "no"
      }
    },
    {
      "type": "node",
      "id": 26807316,
      "lat": 47.3686351,
      "lon": 8.5439243
    },
    {
      "type": "node",
      "id": 26807318,
      "lat": 47.3700597,
      "lon": 8.5433406
    },
    {
      "type": "node",
      "id": 26853031,
      "lat": 47.369353,
      "lon": 8.5446825
    },
    {
      "type": "node",
      "id": 26853032,
      "lat": 47.369102,
      "lon": 8.5449964
    },
    {
      "type": "node",
      "id": 26888813,
      "lat": 47.3696188,
      "lon": 8.539549
    },
    {
      "type": "node",
      "id": 27462587,
      "lat": 47.3685766,
      "lon": 8.543722
    },
    {
      "type": "node",
      "id": 27481890,
      "lat": 47.3714712,
      "lon": 8.5419683
    },
    {
      "type": "node",
      "id": 27481891,
      "lat": 47.3714723,
      "lon": 8.5421582
    },
    {
      "type": "node",
      "id": 27481892,
      "lat": 47.3715439,
      "lon": 8.5421547
    },
    {
      "type": "node",
      "id": 27481893,
      "lat": 47.3715486,
      "lon": 8.5424413
    },
    {
      "type": "node",
      "id": 27481894,
      "lat": 47.371619,
      "lon": 8.5424394
    },
    {
      "type": "node",
      "id": 27481895,
      "lat": 47.3716182,
      "lon": 8.5425244
    },
    {
      "type": "node",
      "id": 27481897,
      "lat": 47.3717556,
      "lon": 8.5428275
    },
    {
      "type": "node",
      "id": 27481898,
      "lat": 47.371595,
      "lon": 8.5419892
    },
    {
      "type": "node",
      "id": 27481900,
      "lat": 47.3714456,
      "lon": 8.5415912
    },
    {
      "type": "node",
      "id": 27481901,
      "lat": 47.3711728,
      "lon": 8.541593
    },
    {
      "type": "node",
      "id": 27481904,
      "lat": 47.3702085,
      "lon": 8.541108
    },
    {
      "type": "node",
      "id": 27481908,
      "lat": 47.3701134,
      "lon": 8.5403467
    },
    {
      "type": "node",
      "id": 27481920,
      "lat": 47.3694676,
      "lon": 8.5394354
    },
    {
      "type": "node",
      "id": 27587922,
      "lat": 47.3711609,
      "lon": 8.5420004
    },
    {
      "type": "node",
      "id": 29055496,
      "lat": 47.3677681,
      "lon": 8.5448713
    },
    {
      "type": "node",
      "id": 29055497,
      "lat": 47.3680261,
      "lon": 8.5446077
    },
    {
      "type": "node",
      "id": 29055505,
      "lat": 47.3686228,
      "lon": 8.5445228
    },
    {
      "type": "node",
      "id": 29055600,
      "lat": 47.3694733,
      "lon": 8.5435721
    },
    {
      "type": "node",
      "id": 29055609,
      "lat": 47.3682131,
      "lon": 8.5450384
    },
    {
      "type": "node",
      "id": 29055610,
      "lat": 47.3695893,
      "lon": 8.5441024
    },
    {
      "type": "node",
      "id": 29055612,
      "lat": 47.3693776,
      "lon": 8.5436951
    },
    {
      "type": "node",
      "id": 29055613,
      "lat": 47.3696515,
      "lon": 8.5434905
    },
    {
      "type": "node",
      "id": 29055614,
      "lat": 47.3696951,
      "lon": 8.5438306
    },
    {
      "type": "node",
      "id": 29055615,
      "lat": 47.3695422,
      "lon": 8.5440241
    },
    {
      "type": "node",
      "id": 29798743,
      "lat": 47.3697654,
      "lon": 8.5406826
    },
    {
      "type": "node",
      "id": 29798744,
      "lat": 47.3667511,
      "lon": 8.5415418
    },
    {
      "type": "node",
      "id": 34537342,
      "lat": 47.3666641,
      "lon": 8.541568
    },
    {
      "type": "node",
      "id": 50514797,
      "lat": 47.3718696,
      "lon": 8.5437775
    },
    {
      "type": "node",
      "id": 92486219,
      "lat": 47.3722896,
      "lon": 8.5402859
    },
    {
      "type": "node",
      "id": 92486223,
      "lat": 47.3722399,
      "lon": 8.5406153
    },
    {
      "type": "node",
      "id": 92486224,
      "lat": 47.3721395,
      "lon": 8.540899
    },
    {
      "type": "node",
      "id": 92486225,
      "lat": 47.37195,
      "lon": 8.5410742
    },
    {
      "type": "node",
      "id": 92486226,
      "lat": 47.37184,
      "lon": 8.5412581
    },
    {
      "type": "node",
      "id": 92486227,
      "lat": 47.3715778,
      "lon": 8.5414862
    },
    {
      "type": "node",
      "id": 92488891,
      "lat": 47.3698846,
      "lon": 8.5408333
    },
    {
      "type": "node",
      "id": 92489171,
      "lat": 47.3689799,
      "lon": 8.5408477
    },
    {
      "type": "node",
      "id": 92489496,
      "lat": 47.3680666,
      "lon": 8.541155
    },
    {
      "type": "node",
      "id": 92489497,
      "lat": 47.3680837,
      "lon": 8.5418646
    },
    {
      "type": "node",
      "id": 92491154,
      "lat": 47.3715443,
      "lon": 8.541539
    },
    {
      "type": "node",
      "id": 92491155,
      "lat": 47.3713007,
      "lon": 8.5416055
    },
    {
      "type": "node",
      "id": 92492373,
      "lat": 47.3709378,
      "lon": 8.5411502
    },
    {
      "type": "node",
      "id": 92492760,
      "lat": 47.3706039,
      "lon": 8.5412824
    },
    {
      "type": "node",
      "id": 92492774,
      "lat": 47.3705238,
      "lon": 8.5401639
    },
    {
      "type": "node",
      "id": 92492775,
      "lat": 47.370631,
      "lon": 8.5404631
    },
    {
      "type": "node",
      "id": 92493816,
      "lat": 47.3708729,
      "lon": 8.5414611
    },
    {
      "type": "node",
      "id": 92496502,
      "lat": 47.371907,
      "lon": 8.5409765
    },
    {
      "type": "node",
      "id": 92496503,
      "lat": 47.3717387,
      "lon": 8.5410036
    },
    {
      "type": "node",
      "id": 92496509,
      "lat": 47.3706409,
      "lon": 8.5411126
    },
    {
      "type": "node",
      "id": 92497846,
      "lat": 47.3721756,
      "lon": 8.540852
    },
    {
      "type": "node",
      "id": 111522397,
      "lat": 47.3715487,
      "lon": 8.5439109
    },
    {
      "type": "node",
      "id": 111522432,
      "lat": 47.3716943,
      "lon": 8.5443213
    },
    {
      "type": "node",
      "id": 111525830,
      "lat": 47.3713298,
      "lon": 8.5435106
    },
    {
      "type": "node",
      "id": 111526193,
      "lat": 47.3717292,
      "lon": 8.543802
    },
    {
      "type": "node",
      "id": 111528124,
      "lat": 47.3714403,
      "lon": 8.5439908
    },
    {
      "type": "node",
      "id": 111528344,
      "lat": 47.3716091,
      "lon": 8.544398
    },
    {
      "type": "node",
      "id": 111528466,
      "lat": 47.3713211,
      "lon": 8.5441396
    },
    {
      "type": "node",
      "id": 111529183,
      "lat": 47.3710259,
      "lon": 8.5433436
    },
    {
      "type": "node",
      "id": 111533356,
      "lat": 47.3707868,
      "lon": 8.5433156
    },
    {
      "type": "node",
      "id": 154608885,
      "lat": 47.3667233,
      "lon": 8.5418612
    },
    {
      "type": "node",
      "id": 154608888,
      "lat": 47.3670737,
      "lon": 8.5417851
    },
    {
      "type": "node",
      "id": 154614298,
      "lat": 47.3713138,
      "lon": 8.5419575
    },
    {
      "type": "node",
      "id": 154617139,
      "lat": 47.3717995,
      "lon": 8.5413544
    },
    {
      "type": "node",
      "id": 156377016,
      "lat": 47.3673576,
      "lon": 8.5418081
    },
    {
      "type": "node",
      "id": 156377018,
      "lat": 47.3673365,
      "lon": 8.5413584
    },
    {
      "type": "node",
      "id": 252482075,
      "lat": 47.3698228,
      "lon": 8.543447
    },
    {
      "type": "node",
      "id": 265666526,
      "lat": 47.3703102,
      "lon": 8.5412591
    },
    {
      "type": "node",
      "id": 273159885,
      "lat": 47.3708079,
      "lon": 8.5443815
    },
    {
      "type": "node",
      "id": 273165508,
      "lat": 47.3708369,
      "lon": 8.5446632
    },
    {
      "type": "node",
      "id": 279108812,
      "lat": 47.3701316,
      "lon": 8.544826
    },
    {
      "type": "node",
      "id": 280783428,
      "lat": 47.3697329,
      "lon": 8.5444449
    },
    {
      "type": "node",
      "id": 280783430,
      "lat": 47.3702619,
      "lon": 8.5435626
    },
    {
      "type": "node",
      "id": 298168389,
      "lat": 47.3710127,
      "lon": 8.5432761
    },
    {
      "type": "node",
      "id": 298168390,
      "lat": 47.3707703,
      "lon": 8.5437185
    },
    {
      "type": "node",
      "id": 298168391,
      "lat": 47.370578,
      "lon": 8.5437274
    },
    {
      "type": "node",
      "id": 300833519,
      "lat": 47.3712928,
      "lon": 8.5410461
    },
    {
      "type": "node",
      "id": 300833834,
      "lat": 47.3712707,
      "lon": 8.5416053
    },
    {
      "type": "node",
      "id": 300836297,
      "lat": 47.3716951,
      "lon": 8.5406025
    },
    {
      "type": "node",
      "id": 300836298,
      "lat": 47.3715542,
      "lon": 8.5406237
    },
    {
      "type": "node",
      "id": 300836299,
      "lat": 47.3715199,
      "lon": 8.5408348
    },
    {
      "type": "node",
      "id": 300836300,
      "lat": 47.3713335,
      "lon": 8.5410366
    },
    {
      "type": "node",
      "id": 300836808,
      "lat": 47.3705079,
      "lon": 8.5401134
    },
    {
      "type": "node",
      "id": 316403154,
      "lat": 47.3719686,
      "lon": 8.5409802
    },
    {
      "type": "node",
      "id": 316407656,
      "lat": 47.3705501,
      "lon": 8.541269
    },
    {
      "type": "node",
      "id": 317774520,
      "lat": 47.3699019,
      "lon": 8.5444738
    },
    {
      "type": "node",
      "id": 317775139,
      "lat": 47.3703251,
      "lon": 8.5438086
    },
    {
      "type": "node",
      "id": 317775142,
      "lat": 47.3698114,
      "lon": 8.5444784
    },
    {
      "type": "node",
      "id": 321340650,
      "lat": 47.3673777,
      "lon": 8.5441993
    },
    {
      "type": "node",
      "id": 321340651,
      "lat": 47.3675131,
      "lon": 8.5441755
    },
    {
      "type": "node",
      "id": 321340652,
      "lat": 47.368695,
      "lon": 8.543584
    },
    {
      "type": "node",
      "id": 321342286,
      "lat": 47.3687735,
      "lon": 8.5437828
    },
    {
      "type": "node",
      "id": 321365654,
      "lat": 47.3698718,
      "lon": 8.5445225
    },
    {
      "type": "node",
      "id": 321365655,
      "lat": 47.369727,
      "lon": 8.5442948
    },
    {
      "type": "node",
      "id": 321365656,
      "lat": 47.3696512,
      "lon": 8.544181
    },
    {
      "type": "node",
      "id": 321365659,
      "lat": 47.3700105,
      "lon": 8.543528
    },
    {
      "type": "node",
      "id": 343597285,
      "lat": 47.3714565,
      "lon": 8.5410101
    },
    {
      "type": "node",
      "id": 357502733,
      "lat": 47.3681112,
      "lon": 8.5418685
    },
    {
      "type": "node",
      "id": 357504477,
      "lat": 47.3685127,
      "lon": 8.5419407
    },
    {
      "type": "node",
      "id": 358125753,
      "lat": 47.3678553,
      "lon": 8.5439929
    },
    {
      "type": "node",
      "id": 358125932,
      "lat": 47.368267,
      "lon": 8.5437925
    },
    {
      "type": "node",
      "id": 358126093,
      "lat": 47.3685542,
      "lon": 8.5436507
    },
    {
      "type": "node",
      "id": 358130638,
      "lat": 47.3686769,
      "lon": 8.5401162
    },
    {
      "type": "node",
      "id": 358130641,
      "lat": 47.368202,
      "lon": 8.5402631
    },
    {
      "type": "node",
      "id": 358130643,
      "lat": 47.3682716,
      "lon": 8.5407543
    },
    {
      "type": "node",
      "id": 358130645,
      "lat": 47.3687465,
      "lon": 8.5406074
    },
    {
      "type": "node",
      "id": 360334509,
      "lat": 47.3685113,
      "lon": 8.5418781
    },
    {
      "type": "node",
      "id": 360334511,
      "lat": 47.3685152,
      "lon": 8.5420038
    },
    {
      "type": "node",
      "id": 370531291,
      "lat": 47.3722574,
      "lon": 8.5405177
    },
    {
      "type": "node",
      "id": 393919498,
      "lat": 47.3705838,
      "lon": 8.5416168
    },
    {
      "type": "node",
      "id": 429330444,
      "lat": 47.3701419,
      "lon": 8.5436055
    },
    {
      "type": "node",
      "id": 445397450,
      "lat": 47.3672144,
      "lon": 8.544138
    },
    {
      "type": "node",
      "id": 445397451,
      "lat": 47.3672842,
      "lon": 8.5441981
    },
    {
      "type": "node",
      "id": 445397476,
      "lat": 47.3671846,
      "lon": 8.5442459
    },
    {
      "type": "node",
      "id": 448145049,
      "lat": 47.368824,
      "lon": 8.543481
    },
    {
      "type": "node",
      "id": 448145052,
      "lat": 47.3690222,
      "lon": 8.5433783
    },
    {
      "type": "node",
      "id": 448145054,
      "lat": 47.3685257,
      "lon": 8.543504
    },
    {
      "type": "node",
      "id": 448145056,
      "lat": 47.3682286,
      "lon": 8.5436359
    },
    {
      "type": "node",
      "id": 660846076,
      "lat": 47.3716662,
      "lon": 8.5425238
    },
    {
      "type": "node",
      "id": 726784463,
      "lat": 47.3684004,
      "lon": 8.5402017
    },
    {
      "type": "node",
      "id": 726795606,
      "lat": 47.3699758,
      "lon": 8.5407516
    },
    {
      "type": "node",
      "id": 726798940,
      "lat": 47.3716294,
      "lon": 8.5422454
    },
    {
      "type": "node",
      "id": 726798942,
      "lat": 47.3715228,
      "lon": 8.5419903
    },
    {
      "type": "node",
      "id": 726798944,
      "lat": 47.3715097,
      "lon": 8.5416637
    },
    {
      "type": "node",
      "id": 726798946,
      "lat": 47.3717154,
      "lon": 8.5424049
    },
    {
      "type": "node",
      "id": 727801811,
      "lat": 47.3711548,
      "lon": 8.5419579
    },
    {
      "type": "node",
      "id": 743313367,
      "lat": 47.3678285,
      "lon": 8.5418408
    },
    {
      "type": "node",
      "id": 754636171,
      "lat": 47.3667684,
      "lon": 8.5418488
    },
    {
      "type": "node",
      "id": 754636176,
      "lat": 47.3667083,
      "lon": 8.5415525
    },
    {
      "type": "node",
      "id": 759987271,
      "lat": 47.371861,
      "lon": 8.5419094
    },
    {
      "type": "node",
      "id": 759987272,
      "lat": 47.3717519,
      "lon": 8.5425107
    },
    {
      "type": "node",
      "id": 759987274,
      "lat": 47.371858,
      "lon": 8.5424991
    },
    {
      "type": "node",
      "id": 759987276,
      "lat": 47.3719716,
      "lon": 8.542503
    },
    {
      "type": "node",
      "id": 894108092,
      "lat": 47.3715909,
      "lon": 8.5432213
    },
    {
      "type": "node",
      "id": 894788929,
      "lat": 47.3716412,
      "lon": 8.5438471
    },
    {
      "type": "node",
      "id": 895750303,
      "lat": 47.3705016,
      "lon": 8.5438161
    },
    {
      "type": "node",
      "id": 895750312,
      "lat": 47.3710693,
      "lon": 8.5434267
    },
    {
      "type": "node",
      "id": 895750369,
      "lat": 47.3710402,
      "lon": 8.5434304
    },
    {
      "type": "node",
      "id": 895750384,
      "lat": 47.3709945,
      "lon": 8.5431659
    },
    {
      "type": "node",
      "id": 895750436,
      "lat": 47.3705336,
      "lon": 8.54444
    },
    {
      "type": "node",
      "id": 895750437,
      "lat": 47.3711397,
      "lon": 8.5436852
    },
    {
      "type": "node",
      "id": 895787586,
      "lat": 47.3708134,
      "lon": 8.5444551
    },
    {
      "type": "node",
      "id": 916462886,
      "lat": 47.3693654,
      "lon": 8.544671
    },
    {
      "type": "node",
      "id": 916945072,
      "lat": 47.3687634,
      "lon": 8.5455329
    },
    {
      "type": "node",
      "id": 955271608,
      "lat": 47.3711588,
      "lon": 8.5444675
    },
    {
      "type": "node",
      "id": 955271676,
      "lat": 47.368967,
      "lon": 8.5451758
    },
    {
      "type": "node",
      "id": 955271705,
      "lat": 47.371132,
      "lon": 8.5443213
    },
    {
      "type": "node",
      "id": 955271833,
      "lat": 47.3711671,
      "lon": 8.5445128
    },
    {
      "type": "node",
      "id": 955271898,
      "lat": 47.3688271,
      "lon": 8.5454471
    },
    {
      "type": "node",
      "id": 1013986256,
      "lat": 47.3709785,
      "lon": 8.5409437
    },
    {
      "type": "node",
      "id": 1013986258,
      "lat": 47.3708783,
      "lon": 8.5411765
    },
    {
      "type": "node",
      "id": 1013986260,
      "lat": 47.3708762,
      "lon": 8.5408474
    },
    {
      "type": "node",
      "id": 1013986263,
      "lat": 47.370813,
      "lon": 8.5413808
    },
    {
      "type": "node",
      "id": 1013986265,
      "lat": 47.3707826,
      "lon": 8.5406742
    },
    {
      "type": "node",
      "id": 1013986268,
      "lat": 47.3709419,
      "lon": 8.5409784
    },
    {
      "type": "node",
      "id": 1013986287,
      "lat": 47.3708541,
      "lon": 8.5414441
    },
    {
      "type": "node",
      "id": 1013986295,
      "lat": 47.370901,
      "lon": 8.5408557
    },
    {
      "type": "node",
      "id": 1013992310,
      "lat": 47.3708711,
      "lon": 8.5407907
    },
    {
      "type": "node",
      "id": 1013992317,
      "lat": 47.3717662,
      "lon": 8.5421009
    },
    {
      "type": "node",
      "id": 1013992320,
      "lat": 47.3709678,
      "lon": 8.5408089
    },
    {
      "type": "node",
      "id": 1013992324,
      "lat": 47.3708957,
      "lon": 8.5409177
    },
    {
      "type": "node",
      "id": 1013992325,
      "lat": 47.3709571,
      "lon": 8.5407681
    },
    {
      "type": "node",
      "id": 1013992336,
      "lat": 47.3717766,
      "lon": 8.5418933
    },
    {
      "type": "node",
      "id": 1013992340,
      "lat": 47.3709988,
      "lon": 8.5407995
    },
    {
      "type": "node",
      "id": 1013992341,
      "lat": 47.371605,
      "lon": 8.5421213
    },
    {
      "type": "node",
      "id": 1031582236,
      "lat": 47.3684124,
      "lon": 8.5447796
    },
    {
      "type": "node",
      "id": 1031582325,
      "lat": 47.3696098,
      "lon": 8.5443967
    },
    {
      "type": "node",
      "id": 1031582627,
      "lat": 47.3690101,
      "lon": 8.5441418
    },
    {
      "type": "node",
      "id": 1031582717,
      "lat": 47.3691852,
      "lon": 8.5439371
    },
    {
      "type": "node",
      "id": 1031583397,
      "lat": 47.3682876,
      "lon": 8.5445432
    },
    {
      "type": "node",
      "id": 1031583583,
      "lat": 47.3688682,
      "lon": 8.5443358
    },
    {
      "type": "node",
      "id": 1031583619,
      "lat": 47.3680563,
      "lon": 8.5452111
    },
    {
      "type": "node",
      "id": 1031583622,
      "lat": 47.3692589,
      "lon": 8.5438448
    },
    {
      "type": "node",
      "id": 1031583630,
      "lat": 47.368511,
      "lon": 8.5442987
    },
    {
      "type": "node",
      "id": 1031583722,
      "lat": 47.3686683,
      "lon": 8.544563
    },
    {
      "type": "node",
      "id": 1037402735,
      "lat": 47.3715552,
      "lon": 8.5415883
    },
    {
      "type": "node",
      "id": 1037402739,
      "lat": 47.3717702,
      "lon": 8.5410001
    },
    {
      "type": "node",
      "id": 1037402751,
      "lat": 47.371517,
      "lon": 8.5412831
    },
    {
      "type": "node",
      "id": 1037402756,
      "lat": 47.3722824,
      "lon": 8.5403389
    },
    {
      "type": "node",
      "id": 1037402776,
      "lat": 47.3720157,
      "lon": 8.5409433
    },
    {
      "type": "node",
      "id": 1037402793,
      "lat": 47.3714711,
      "lon": 8.5419589
    },
    {
      "type": "node",
      "id": 1037402810,
      "lat": 47.3713359,
      "lon": 8.5409916
    },
    {
      "type": "node",
      "id": 1037402815,
      "lat": 47.3715744,
      "lon": 8.5417781
    },
    {
      "type": "node",
      "id": 1037402831,
      "lat": 47.371517,
      "lon": 8.5406294
    },
    {
      "type": "node",
      "id": 1041911727,
      "lat": 47.3712721,
      "lon": 8.5415693
    },
    {
      "type": "node",
      "id": 1041911969,
      "lat": 47.3707108,
      "lon": 8.5405873
    },
    {
      "type": "node",
      "id": 1041912291,
      "lat": 47.3708784,
      "lon": 8.5409159
    },
    {
      "type": "node",
      "id": 1041912420,
      "lat": 47.3712794,
      "lon": 8.5413862
    },
    {
      "type": "node",
      "id": 1041996281,
      "lat": 47.3713028,
      "lon": 8.5416655
    },
    {
      "type": "node",
      "id": 1042890578,
      "lat": 47.3668015,
      "lon": 8.5418405
    },
    {
      "type": "node",
      "id": 1042890630,
      "lat": 47.3674344,
      "lon": 8.5418168
    },
    {
      "type": "node",
      "id": 1042890638,
      "lat": 47.3670422,
      "lon": 8.5414506
    },
    {
      "type": "node",
      "id": 1042897419,
      "lat": 47.3676557,
      "lon": 8.5412695
    },
    {
      "type": "node",
      "id": 1042941857,
      "lat": 47.3696973,
      "lon": 8.5437545
    },
    {
      "type": "node",
      "id": 1042961928,
      "lat": 47.3675956,
      "lon": 8.5441347
    },
    {
      "type": "node",
      "id": 1057775821,
      "lat": 47.3695365,
      "lon": 8.541842
    },
    {
      "type": "node",
      "id": 1057775823,
      "lat": 47.3696106,
      "lon": 8.5406611
    },
    {
      "type": "node",
      "id": 1309608257,
      "lat": 47.3699264,
      "lon": 8.5434075
    },
    {
      "type": "node",
      "id": 1309608258,
      "lat": 47.36997,
      "lon": 8.5436077
    },
    {
      "type": "node",
      "id": 1309608259,
      "lat": 47.3699847,
      "lon": 8.5436017
    },
    {
      "type": "node",
      "id": 1309608260,
      "lat": 47.3699924,
      "lon": 8.5436973
    },
    {
      "type": "node",
      "id": 1309608261,
      "lat": 47.3700226,
      "lon": 8.5435826
    },
    {
      "type": "node",
      "id": 1309608262,
      "lat": 47.3702073,
      "lon": 8.5434371
    },
    {
      "type": "node",
      "id": 1309608263,
      "lat": 47.3703375,
      "lon": 8.5435487
    },
    {
      "type": "node",
      "id": 1309608264,
      "lat": 47.3704299,
      "lon": 8.5440284
    },
    {
      "type": "node",
      "id": 1309608265,
      "lat": 47.3704387,
      "lon": 8.5438467
    },
    {
      "type": "node",
      "id": 1309608266,
      "lat": 47.3704536,
      "lon": 8.5440225
    },
    {
      "type": "node",
      "id": 1309608268,
      "lat": 47.3705017,
      "lon": 8.5438398
    },
    {
      "type": "node",
      "id": 1388659064,
      "lat": 47.3697061,
      "lon": 8.5406647
    },
    {
      "type": "node",
      "id": 1388659066,
      "lat": 47.3697495,
      "lon": 8.5405593
    },
    {
      "type": "node",
      "id": 1388659070,
      "lat": 47.3698337,
      "lon": 8.5407324
    },
    {
      "type": "node",
      "id": 1388680670,
      "lat": 47.3688401,
      "lon": 8.5398184
    },
    {
      "type": "node",
      "id": 1388680673,
      "lat": 47.3695633,
      "lon": 8.5414199
    },
    {
      "type": "node",
      "id": 1388680674,
      "lat": 47.3695734,
      "lon": 8.5412572
    },
    {
      "type": "node",
      "id": 1388680675,
      "lat": 47.3695887,
      "lon": 8.541013
    },
    {
      "type": "node",
      "id": 1388680677,
      "lat": 47.369597,
      "lon": 8.5408796
    },
    {
      "type": "node",
      "id": 1480291236,
      "lat": 47.3691304,
      "lon": 8.5435111
    },
    {
      "type": "node",
      "id": 1480291237,
      "lat": 47.3692746,
      "lon": 8.5438261
    },
    {
      "type": "node",
      "id": 1480291239,
      "lat": 47.3694912,
      "lon": 8.5442267
    },
    {
      "type": "node",
      "id": 1480291240,
      "lat": 47.3696683,
      "lon": 8.5444391
    },
    {
      "type": "node",
      "id": 1480291241,
      "lat": 47.3696719,
      "lon": 8.5444073
    },
    {
      "type": "node",
      "id": 1480291243,
      "lat": 47.37017,
      "lon": 8.544129
    },
    {
      "type": "node",
      "id": 1480291244,
      "lat": 47.3702772,
      "lon": 8.5445884
    },
    {
      "type": "node",
      "id": 1480291246,
      "lat": 47.3703416,
      "lon": 8.5444025
    },
    {
      "type": "node",
      "id": 1480291247,
      "lat": 47.3703668,
      "lon": 8.5444948
    },
    {
      "type": "node",
      "id": 1480291248,
      "lat": 47.3704154,
      "lon": 8.5438049
    },
    {
      "type": "node",
      "id": 1480291249,
      "lat": 47.3704658,
      "lon": 8.5457392
    },
    {
      "type": "node",
      "id": 1480291250,
      "lat": 47.3704594,
      "lon": 8.5443062
    },
    {
      "type": "node",
      "id": 1480291251,
      "lat": 47.3705189,
      "lon": 8.5442992
    },
    {
      "type": "node",
      "id": 1480291252,
      "lat": 47.3706362,
      "lon": 8.5442816
    },
    {
      "type": "node",
      "id": 1480291255,
      "lat": 47.3706415,
      "lon": 8.5444086
    },
    {
      "type": "node",
      "id": 1480291256,
      "lat": 47.3709527,
      "lon": 8.5443545
    },
    {
      "type": "node",
      "id": 1480291257,
      "lat": 47.3711272,
      "lon": 8.5442949
    },
    {
      "type": "node",
      "id": 1480291259,
      "lat": 47.3712078,
      "lon": 8.5442409
    },
    {
      "type": "node",
      "id": 1480291260,
      "lat": 47.371491,
      "lon": 8.5439482
    },
    {
      "type": "node",
      "id": 1480393911,
      "lat": 47.3683716,
      "lon": 8.5448543
    },
    {
      "type": "node",
      "id": 1480393913,
      "lat": 47.3684398,
      "lon": 8.5457952
    },
    {
      "type": "node",
      "id": 1480393918,
      "lat": 47.368637,
      "lon": 8.5456362
    },
    {
      "type": "node",
      "id": 1480393919,
      "lat": 47.3687389,
      "lon": 8.5440866
    },
    {
      "type": "node",
      "id": 1480393921,
      "lat": 47.3688933,
      "lon": 8.5439222
    },
    {
      "type": "node",
      "id": 1480393922,
      "lat": 47.3690689,
      "lon": 8.5440749
    },
    {
      "type": "node",
      "id": 1608422316,
      "lat": 47.3672886,
      "lon": 8.5442996
    },
    {
      "type": "node",
      "id": 1608422319,
      "lat": 47.3673316,
      "lon": 8.544308
    },
    {
      "type": "node",
      "id": 1608422330,
      "lat": 47.3674697,
      "lon": 8.5443056
    },
    {
      "type": "node",
      "id": 1608422332,
      "lat": 47.3678076,
      "lon": 8.5441713
    },
    {
      "type": "node",
      "id": 1608422334,
      "lat": 47.3685729,
      "lon": 8.5445877
    },
    {
      "type": "node",
      "id": 1608422335,
      "lat": 47.3686179,
      "lon": 8.543761
    },
    {
      "type": "node",
      "id": 1608422337,
      "lat": 47.3686423,
      "lon": 8.5438216
    },
    {
      "type": "node",
      "id": 1608422341,
      "lat": 47.3686455,
      "lon": 8.5438685
    },
    {
      "type": "node",
      "id": 1608422344,
      "lat": 47.3688473,
      "lon": 8.5443786
    },
    {
      "type": "node",
      "id": 1608422345,
      "lat": 47.3688934,
      "lon": 8.5452773
    },
    {
      "type": "node",
      "id": 1608422347,
      "lat": 47.3691512,
      "lon": 8.5449166
    },
    {
      "type": "node",
      "id": 1608966953,
      "lat": 47.36912,
      "lon": 8.541882
    },
    {
      "type": "node",
      "id": 1608966954,
      "lat": 47.3698835,
      "lon": 8.5419396
    },
    {
      "type": "node",
      "id": 1608966955,
      "lat": 47.3698855,
      "lon": 8.5419084
    },
    {
      "type": "node",
      "id": 1608966956,
      "lat": 47.3698856,
      "lon": 8.5418664
    },
    {
      "type": "node",
      "id": 1608966957,
      "lat": 47.3699033,
      "lon": 8.5415654
    },
    {
      "type": "node",
      "id": 1608966958,
      "lat": 47.3699231,
      "lon": 8.5409099
    },
    {
      "type": "node",
      "id": 1608966959,
      "lat": 47.3699375,
      "lon": 8.5410352
    },
    {
      "type": "node",
      "id": 1608966960,
      "lat": 47.369991,
      "lon": 8.5429923
    },
    {
      "type": "node",
      "id": 1609407520,
      "lat": 47.3687108,
      "lon": 8.5436419
    },
    {
      "type": "node",
      "id": 1609407526,
      "lat": 47.3688498,
      "lon": 8.5435824
    },
    {
      "type": "node",
      "id": 1609407529,
      "lat": 47.369945,
      "lon": 8.5419219
    },
    {
      "type": "node",
      "id": 1609407534,
      "lat": 47.3702193,
      "lon": 8.5419362
    },
    {
      "type": "node",
      "id": 1609407577,
      "lat": 47.37033,
      "lon": 8.5419448
    },
    {
      "type": "node",
      "id": 1609407580,
      "lat": 47.3703319,
      "lon": 8.5431742
    },
    {
      "type": "node",
      "id": 1609407584,
      "lat": 47.3704086,
      "lon": 8.5419502
    },
    {
      "type": "node",
      "id": 1609407588,
      "lat": 47.3704712,
      "lon": 8.5419545
    },
    {
      "type": "node",
      "id": 1609407592,
      "lat": 47.3705697,
      "lon": 8.5430724
    },
    {
      "type": "node",
      "id": 1609407595,
      "lat": 47.3706279,
      "lon": 8.5419461
    },
    {
      "type": "node",
      "id": 1609407597,
      "lat": 47.3707345,
      "lon": 8.543014
    },
    {
      "type": "node",
      "id": 1609407599,
      "lat": 47.3708079,
      "lon": 8.5419364
    },
    {
      "type": "node",
      "id": 1609407601,
      "lat": 47.3709722,
      "lon": 8.5429659
    },
    {
      "type": "node",
      "id": 1609407615,
      "lat": 47.371006,
      "lon": 8.5419251
    },
    {
      "type": "node",
      "id": 1609407619,
      "lat": 47.371174,
      "lon": 8.5429269
    },
    {
      "type": "node",
      "id": 1609407623,
      "lat": 47.3713123,
      "lon": 8.5419256
    },
    {
      "type": "node",
      "id": 1609407628,
      "lat": 47.371533,
      "lon": 8.5428597
    },
    {
      "type": "node",
      "id": 1614556174,
      "lat": 47.3690624,
      "lon": 8.543532
    },
    {
      "type": "node",
      "id": 1630573686,
      "lat": 47.3699097,
      "lon": 8.5414667
    },
    {
      "type": "node",
      "id": 1630573690,
      "lat": 47.3699493,
      "lon": 8.5408312
    },
    {
      "type": "node",
      "id": 1630573692,
      "lat": 47.3700441,
      "lon": 8.5404897
    },
    {
      "type": "node",
      "id": 1630573694,
      "lat": 47.3700966,
      "lon": 8.5403813
    },
    {
      "type": "node",
      "id": 1630573696,
      "lat": 47.3700996,
      "lon": 8.5408713
    },
    {
      "type": "node",
      "id": 1630573698,
      "lat": 47.3701517,
      "lon": 8.5408852
    },
    {
      "type": "node",
      "id": 1630573705,
      "lat": 47.3701774,
      "lon": 8.5411679
    },
    {
      "type": "node",
      "id": 1630573706,
      "lat": 47.3701814,
      "lon": 8.5409302
    },
    {
      "type": "node",
      "id": 1630573707,
      "lat": 47.3701889,
      "lon": 8.5405376
    },
    {
      "type": "node",
      "id": 1630573708,
      "lat": 47.3702105,
      "lon": 8.5410381
    },
    {
      "type": "node",
      "id": 1852219828,
      "lat": 47.3709405,
      "lon": 8.5411221
    },
    {
      "type": "node",
      "id": 1852219829,
      "lat": 47.3709539,
      "lon": 8.5409902
    },
    {
      "type": "node",
      "id": 1852219830,
      "lat": 47.3708565,
      "lon": 8.5411435
    },
    {
      "type": "node",
      "id": 1852219832,
      "lat": 47.3714763,
      "lon": 8.5407194
    },
    {
      "type": "node",
      "id": 1852219833,
      "lat": 47.3709255,
      "lon": 8.5411545
    },
    {
      "type": "node",
      "id": 1852219834,
      "lat": 47.37144,
      "lon": 8.54076
    },
    {
      "type": "node",
      "id": 1852219835,
      "lat": 47.3715182,
      "lon": 8.540717
    },
    {
      "type": "node",
      "id": 1852219837,
      "lat": 47.3709355,
      "lon": 8.5409616
    },
    {
      "type": "node",
      "id": 1852219838,
      "lat": 47.3715173,
      "lon": 8.5406527
    },
    {
      "type": "node",
      "id": 1852219839,
      "lat": 47.3714728,
      "lon": 8.5406904
    },
    {
      "type": "node",
      "id": 1852219840,
      "lat": 47.3714645,
      "lon": 8.5406215
    },
    {
      "type": "node",
      "id": 1852219841,
      "lat": 47.3709167,
      "lon": 8.5411356
    },
    {
      "type": "node",
      "id": 1852219842,
      "lat": 47.3714688,
      "lon": 8.540657
    },
    {
      "type": "node",
      "id": 1852219843,
      "lat": 47.3710702,
      "lon": 8.5410913
    },
    {
      "type": "node",
      "id": 1852219844,
      "lat": 47.3708642,
      "lon": 8.5409593
    },
    {
      "type": "node",
      "id": 1852219845,
      "lat": 47.3714627,
      "lon": 8.5408468
    },
    {
      "type": "node",
      "id": 1852219846,
      "lat": 47.3712284,
      "lon": 8.5406564
    },
    {
      "type": "node",
      "id": 1852219847,
      "lat": 47.3712221,
      "lon": 8.5409585
    },
    {
      "type": "node",
      "id": 1852219849,
      "lat": 47.3713765,
      "lon": 8.5409048
    },
    {
      "type": "node",
      "id": 1852219850,
      "lat": 47.3713628,
      "lon": 8.5408696
    },
    {
      "type": "node",
      "id": 1852219851,
      "lat": 47.3712275,
      "lon": 8.5406778
    },
    {
      "type": "node",
      "id": 1852219852,
      "lat": 47.3711921,
      "lon": 8.5406969
    },
    {
      "type": "node",
      "id": 1852219853,
      "lat": 47.3715178,
      "lon": 8.5406862
    },
    {
      "type": "node",
      "id": 1858523213,
      "lat": 47.3719534,
      "lon": 8.5419244
    },
    {
      "type": "node",
      "id": 1929709423,
      "lat": 47.3695426,
      "lon": 8.5394347
    },
    {
      "type": "node",
      "id": 1929709425,
      "lat": 47.3695836,
      "lon": 8.5394537
    },
    {
      "type": "node",
      "id": 1968663669,
      "lat": 47.3712112,
      "lon": 8.543079
    },
    {
      "type": "node",
      "id": 1970612892,
      "lat": 47.3688392,
      "lon": 8.5443249
    },
    {
      "type": "node",
      "id": 1970612895,
      "lat": 47.3689122,
      "lon": 8.5436292
    },
    {
      "type": "node",
      "id": 1970612907,
      "lat": 47.3691769,
      "lon": 8.5442958
    },
    {
      "type": "node",
      "id": 1970612925,
      "lat": 47.3692504,
      "lon": 8.5447796
    },
    {
      "type": "node",
      "id": 1970612974,
      "lat": 47.3704177,
      "lon": 8.5437001
    },
    {
      "type": "node",
      "id": 1970612975,
      "lat": 47.3704252,
      "lon": 8.5435652
    },
    {
      "type": "node",
      "id": 1970612976,
      "lat": 47.370566,
      "lon": 8.5438016
    },
    {
      "type": "node",
      "id": 1970612978,
      "lat": 47.3705839,
      "lon": 8.5435868
    },
    {
      "type": "node",
      "id": 1970612996,
      "lat": 47.3707488,
      "lon": 8.5432529
    },
    {
      "type": "node",
      "id": 1970613006,
      "lat": 47.3707878,
      "lon": 8.5432498
    },
    {
      "type": "node",
      "id": 1972634163,
      "lat": 47.3701986,
      "lon": 8.5449719
    },
    {
      "type": "node",
      "id": 2344162391,
      "lat": 47.3717597,
      "lon": 8.5418952
    },
    {
      "type": "node",
      "id": 2344162395,
      "lat": 47.3719536,
      "lon": 8.5419034
    },
    {
      "type": "node",
      "id": 2344168581,
      "lat": 47.3713313,
      "lon": 8.5408902
    },
    {
      "type": "node",
      "id": 2344168582,
      "lat": 47.3713408,
      "lon": 8.5409364
    },
    {
      "type": "node",
      "id": 2344168583,
      "lat": 47.3713547,
      "lon": 8.5409756
    },
    {
      "type": "node",
      "id": 317774522,
      "lat": 47.3699576,
      "lon": 8.5443694
    },
    {
      "type": "node",
      "id": 429330446,
      "lat": 47.3698626,
      "lon": 8.5441549
    },
    {
      "type": "node",
      "id": 1281444275,
      "lat": 47.3698792,
      "lon": 8.5442917
    },
    {
      "type": "node",
      "id": 2453777362,
      "lat": 47.3698719,
      "lon": 8.5441855
    },
    {
      "type": "node",
      "id": 2453801837,
      "lat": 47.3701009,
      "lon": 8.5436873
    },
    {
      "type": "node",
      "id": 2453801839,
      "lat": 47.3701959,
      "lon": 8.5436665
    },
    {
      "type": "node",
      "id": 2453806477,
      "lat": 47.370287,
      "lon": 8.543886
    },
    {
      "type": "node",
      "id": 2453806478,
      "lat": 47.3702743,
      "lon": 8.5437535
    },
    {
      "type": "node",
      "id": 1281444273,
      "lat": 47.3699175,
      "lon": 8.544216
    },
    {
      "type": "node",
      "id": 2453777361,
      "lat": 47.3698729,
      "lon": 8.5441664
    },
    {
      "type": "node",
      "id": 2453777363,
      "lat": 47.3698762,
      "lon": 8.5442081
    },
    {
      "type": "node",
      "id": 2453777364,
      "lat": 47.3698873,
      "lon": 8.54422
    },
    {
      "type": "node",
      "id": 2453777365,
      "lat": 47.3699017,
      "lon": 8.5442238
    },
    {
      "type": "node",
      "id": 1852219836,
      "lat": 47.3710532,
      "lon": 8.5409321
    },
    {
      "type": "node",
      "id": 2454047087,
      "lat": 47.3710184,
      "lon": 8.5409403
    },
    {
      "type": "node",
      "id": 92489170,
      "lat": 47.3688091,
      "lon": 8.5396129
    },
    {
      "type": "node",
      "id": 26853008,
      "lat": 47.3681585,
      "lon": 8.5459849
    },
    {
      "type": "node",
      "id": 278462541,
      "lat": 47.3706987,
      "lon": 8.5465641
    },
    {
      "type": "node",
      "id": 387850641,
      "lat": 47.3706057,
      "lon": 8.5461505
    },
    {
      "type": "node",
      "id": 387850642,
      "lat": 47.3705348,
      "lon": 8.5459374
    },
    {
      "type": "node",
      "id": 894921134,
      "lat": 47.3705859,
      "lon": 8.5460878
    }
  ]
}